[
    {
        "line": "Γραμμή 1",
        "name": "Πειραιάς",
        "latitude": 37.9481116,
        "longitude": 23.6432721,
        "municipality": "ΠΕΙΡΑΙΩΣ",
        "road": "Αλιπέδου"
    },
    {
        "line": "Γραμμή 1",
        "name": "Νέο Φάληρο",
        "latitude": 37.9449872,
        "longitude": 23.6652251,
        "municipality": "ΠΕΙΡΑΙΩΣ",
        "road": "Θρασύβουλου Ζαΐμη"
    },
    {
        "line": "Γραμμή 1",
        "name": "Μοσχάτο",
        "latitude": 37.9550458,
        "longitude": 23.6796688,
        "municipality": "ΜΟΣΧΑΤΟΥ-ΤΑΥΡΟΥ",
        "road": "Θεσσαλονίκης"
    },
    {
        "line": "Γραμμή 1",
        "name": "Καλλιθέα",
        "latitude": 37.9604041,
        "longitude": 23.6973321,
        "municipality": "ΚΑΛΛΙΘΕΑΣ",
        "road": "Σιβιτανίδου"
    },
    {
        "line": "Γραμμή 1",
        "name": "Ταύρος",
        "latitude": 37.9624659,
        "longitude": 23.7033906,
        "municipality": "ΜΟΣΧΑΤΟΥ-ΤΑΥΡΟΥ",
        "road": "Θεσσαλονίκης"
    },
    {
        "line": "Γραμμή 1",
        "name": "Πετράλωνα",
        "latitude": 37.9686198,
        "longitude": 23.7092682,
        "municipality": "ΑΘΗΝΑΙΩΝ",
        "road": "Θεσσαλονίκης"
    },
    {
        "line": "Γραμμή 1",
        "name": "Θησείο",
        "latitude": 37.9767093,
        "longitude": 23.7207061,
        "municipality": "ΑΘΗΝΑΙΩΝ",
        "road": "Αγίων Ασωμάτων"
    },
    {
        "line": "Γραμμή 1",
        "name": "Μοναστηράκι",
        "latitude": 37.9762014,
        "longitude": 23.7253611,
        "municipality": "ΑΘΗΝΑΙΩΝ",
        "road": "Ηφαίστου"
    },
    {
        "line": "Γραμμή 1",
        "name": "Ομόνοια",
        "latitude": 37.9839081,
        "longitude": 23.7281345,
        "municipality": "ΑΘΗΝΑΙΩΝ",
        "road": "Πλατεία Ομονοίας"
    },
    {
        "line": "Γραμμή 1",
        "name": "Βικτώρια",
        "latitude": 37.9930663,
        "longitude": 23.7303892,
        "municipality": "ΑΘΗΝΑΙΩΝ",
        "road": "Χέυδεν"
    },
    {
        "line": "Γραμμή 1",
        "name": "Αττική",
        "latitude": 37.9992951,
        "longitude": 23.7220981,
        "municipality": "ΑΘΗΝΑΙΩΝ",
        "road": "Ευαλκίδου"
    },
    {
        "line": "Γραμμή 1",
        "name": "Άγιος Νικόλαος",
        "latitude": 38.006919,
        "longitude": 23.727711,
        "municipality": "ΑΘΗΝΑΙΩΝ",
        "road": "Ιωνίας"
    },
    {
        "line": "Γραμμή 1",
        "name": "Κάτω Πατήσια",
        "latitude": 38.0115762,
        "longitude": 23.7287924,
        "municipality": "ΑΘΗΝΑΙΩΝ",
        "road": "Ιωνίας"
    },
    {
        "line": "Γραμμή 1",
        "name": "Αγ. Ελευθέριος",
        "latitude": 38.0201134,
        "longitude": 23.7318585,
        "municipality": "ΑΘΗΝΑΙΩΝ",
        "road": "Ιωνίας"
    },
    {
        "line": "Γραμμή 1",
        "name": "Άνω Πατήσια",
        "latitude": 38.023795,
        "longitude": 23.735964,
        "municipality": "ΑΘΗΝΑΙΩΝ",
        "road": "Ιωνίας"
    },
    {
        "line": "Γραμμή 1",
        "name": "Περισσός",
        "latitude": 38.032728,
        "longitude": 23.74467,
        "municipality": "ΝΕΑΣ ΙΩΝΙΑΣ",
        "road": null
    },
    {
        "line": "Γραμμή 1",
        "name": "Πευκάκια",
        "latitude": 38.0371452,
        "longitude": 23.750169,
        "municipality": "ΝΕΑΣ ΙΩΝΙΑΣ",
        "road": "Γυμνασίου"
    },
    {
        "line": "Γραμμή 1",
        "name": "Νέα Ιωνία",
        "latitude": 38.041612,
        "longitude": 23.7551964,
        "municipality": "ΝΕΑΣ ΙΩΝΙΑΣ",
        "road": "Διονυσίου Σολωμού"
    },
    {
        "line": "Γραμμή 1",
        "name": "Ηράκλειο",
        "latitude": 38.0462627,
        "longitude": 23.7661559,
        "municipality": "ΗΡΑΚΛΕΙΟΥ",
        "road": null
    },
    {
        "line": "Γραμμή 1",
        "name": "ΕΙΡΗΝΗ",
        "latitude": 38.0437324,
        "longitude": 23.782722,
        "municipality": "ΑΜΑΡΟΥΣΙΟΥ",
        "road": "Νερατζιωτίσσης"
    },
    {
        "line": "Γραμμή 1",
        "name": "Νερατζιώτισσα",
        "latitude": 38.0448052,
        "longitude": 23.792862,
        "municipality": "ΑΜΑΡΟΥΣΙΟΥ",
        "road": "Ανδρέα Παπανδρέου"
    },
    {
        "line": "Γραμμή 1",
        "name": "Μαρούσι",
        "latitude": 38.056182,
        "longitude": 23.80498,
        "municipality": "ΑΜΑΡΟΥΣΙΟΥ",
        "road": null
    },
    {
        "line": "Γραμμή 1",
        "name": "ΚΑΤ",
        "latitude": 38.065922,
        "longitude": 23.804028,
        "municipality": "ΑΜΑΡΟΥΣΙΟΥ",
        "road": "Ηροδότου"
    },
    {
        "line": "Γραμμή 1",
        "name": "Κηφισιά",
        "latitude": 38.0736817,
        "longitude": 23.8083101,
        "municipality": "ΚΗΦΙΣΙΑΣ",
        "road": "Δραγούμη Σ."
    },
    {
        "line": "Γραμμη 2",
        "name": "Ανθούπολη",
        "latitude": 38.0171154,
        "longitude": 23.6910972,
        "municipality": "ΠΕΡΙΣΤΕΡΙΟΥ",
        "road": "Αναπαύσεως"
    },
    {
        "line": "Γραμμη 2",
        "name": "Περιστέρι",
        "latitude": 38.0131616,
        "longitude": 23.6955017,
        "municipality": "ΠΕΡΙΣΤΕΡΙΟΥ",
        "road": "Παναγή Τσαλδάρη"
    },
    {
        "line": "Γραμμη 2",
        "name": "Άγιος Αντώνιος",
        "latitude": 38.0066611,
        "longitude": 23.699481,
        "municipality": "ΠΕΡΙΣΤΕΡΙΟΥ",
        "road": "Πλατεία Αγίου Αντωνίου"
    },
    {
        "line": "Γραμμη 2",
        "name": "Σεπόλια",
        "latitude": 38.0026465,
        "longitude": 23.7135381,
        "municipality": "ΑΘΗΝΑΙΩΝ",
        "road": "Αντιγόνης"
    },
    {
        "line": "Γραμμη 2",
        "name": "Αττική",
        "latitude": 37.9994388,
        "longitude": 23.7227672,
        "municipality": "ΑΘΗΝΑΙΩΝ",
        "road": "Λιοσίων"
    },
    {
        "line": "Γραμμη 2",
        "name": "Σταθμός Λαρίσης",
        "latitude": 37.9919943,
        "longitude": 23.721102,
        "municipality": "ΑΘΗΝΑΙΩΝ",
        "road": "Θεόδωρου Δηληγιάννη"
    },
    {
        "line": "Γραμμη 2",
        "name": "Μεταξουργείο",
        "latitude": 37.9862737,
        "longitude": 23.721142,
        "municipality": "ΑΘΗΝΑΙΩΝ",
        "road": "Θεόδωρου Δηληγιάννη"
    },
    {
        "line": "Γραμμη 2",
        "name": "Ομόνοια",
        "latitude": 37.984183,
        "longitude": 23.728692,
        "municipality": "ΑΘΗΝΑΙΩΝ",
        "road": null
    },
    {
        "line": "Γραμμη 2",
        "name": "Πανεπιστήμιο",
        "latitude": 37.9803782,
        "longitude": 23.7330586,
        "municipality": "ΑΘΗΝΑΙΩΝ",
        "road": "Πανεπιστημίου"
    },
    {
        "line": "Γραμμη 2",
        "name": "Σύνταγμα",
        "latitude": 37.974647,
        "longitude": 23.7356793,
        "municipality": "ΑΘΗΝΑΙΩΝ",
        "road": "Βασιλίσσης Αμαλίας"
    },
    {
        "line": "Γραμμη 2",
        "name": "Ακρόπολη",
        "latitude": 37.9687332,
        "longitude": 23.7296007,
        "municipality": "ΑΘΗΝΑΙΩΝ",
        "road": "Μακρυγιάννη"
    },
    {
        "line": "Γραμμη 2",
        "name": "Συγγρού - Φιξ",
        "latitude": 37.9642911,
        "longitude": 23.7265662,
        "municipality": "ΑΘΗΝΑΙΩΝ",
        "road": "Ανδρέα Συγγρού"
    },
    {
        "line": "Γραμμη 2",
        "name": "Νέος κόσμος",
        "latitude": 37.9575975,
        "longitude": 23.7284654,
        "municipality": "ΑΘΗΝΑΙΩΝ",
        "road": "Κασομούλη"
    },
    {
        "line": "Γραμμη 2",
        "name": "Άγιος Ιωάννης",
        "latitude": 37.9566294,
        "longitude": 23.7346841,
        "municipality": "ΑΘΗΝΑΙΩΝ",
        "road": "Κασομούλη"
    },
    {
        "line": "Γραμμη 2",
        "name": "Δάφνη",
        "latitude": 37.9492026,
        "longitude": 23.7372233,
        "municipality": "ΑΓΙΟΥ ΔΗΜΗΤΡΙΟΥ",
        "road": "Στριγγαρη"
    },
    {
        "line": "Γραμμη 2",
        "name": "Άγιος Δημήτριος",
        "latitude": 37.940544,
        "longitude": 23.740716,
        "municipality": "ΗΛΙΟΥΠΟΛΗΣ",
        "road": "Εθνικής Αντιστάσεως"
    },
    {
        "line": "Γραμμη 2",
        "name": "Ηλιούπολη",
        "latitude": 37.9298108,
        "longitude": 23.7445277,
        "municipality": "ΗΛΙΟΥΠΟΛΗΣ",
        "road": "Βουλιαγμένης"
    },
    {
        "line": "Γραμμη 2",
        "name": "Άλιμος",
        "latitude": 37.9181269,
        "longitude": 23.74417,
        "municipality": "ΑΛΙΜΟΥ",
        "road": "Βουλιαγμένης"
    },
    {
        "line": "Γραμμη 2",
        "name": "Αργυρούπολη",
        "latitude": 37.9030515,
        "longitude": 23.7459051,
        "municipality": "ΕΛΛΗΝΙΚΟΥ - ΑΡΓΥΡΟΥΠΟΛΗΣ",
        "road": "Βουλιαγμένης"
    },
    {
        "line": "Γραμμη 2",
        "name": "Ελληνικό",
        "latitude": 37.8925685,
        "longitude": 23.7471345,
        "municipality": "ΕΛΛΗΝΙΚΟΥ - ΑΡΓΥΡΟΥΠΟΛΗΣ",
        "road": "Βουλιαγμένης"
    },
    {
        "line": "Γραμμή 3",
        "name": "Δημοτικό Θέατρο",
        "latitude": 37.9429353,
        "longitude": 23.647582,
        "municipality": "ΠΕΙΡΑΙΩΣ",
        "road": "Βασιλέως Γεωργίου Α'"
    },
    {
        "line": "Γραμμή 3",
        "name": "Πειραιάς",
        "latitude": 37.9480568,
        "longitude": 23.6422756,
        "municipality": "ΠΕΙΡΑΙΩΣ",
        "road": "Ακτή Καλιμασσιώτη"
    },
    {
        "line": "Γραμμή 3",
        "name": "Μανιάτικα",
        "latitude": 37.9595598,
        "longitude": 23.6397859,
        "municipality": "ΠΕΙΡΑΙΩΣ",
        "road": "Αιτωλικού"
    },
    {
        "line": "Γραμμή 3",
        "name": "Νίκαια",
        "latitude": 37.96571,
        "longitude": 23.647352,
        "municipality": "ΝΙΚΑΙΑΣ - ΑΓΙΟΥ ΙΩΑΝΝΗ ΡΕΝΤΗ",
        "road": "Παναγή Τσαλδάρη"
    },
    {
        "line": "Γραμμή 3",
        "name": "Κορυδαλλός",
        "latitude": 37.977031,
        "longitude": 23.650442,
        "municipality": "ΚΟΡΥΔΑΛΛΟΥ",
        "road": "Πλατεία Ελευθερίας"
    },
    {
        "line": "Γραμμή 3",
        "name": "Αγία Βαρβάρα",
        "latitude": 37.989948,
        "longitude": 23.659339,
        "municipality": "ΑΓΙΑΣ ΒΑΡΒΑΡΑΣ",
        "road": "Ελευθερίου Βενιζέλου"
    },
    {
        "line": "Γραμμή 3",
        "name": "Αγία Μαρίνα",
        "latitude": 37.9972187,
        "longitude": 23.6673683,
        "municipality": "ΑΓΙΑΣ ΒΑΡΒΑΡΑΣ",
        "road": "Ιερά Οδός"
    },
    {
        "line": "Γραμμή 3",
        "name": "Αιγάλεω",
        "latitude": 37.991956,
        "longitude": 23.6818295,
        "municipality": "ΑΙΓΑΛΕΩ",
        "road": "Νικολάου Πλαστήρα"
    },
    {
        "line": "Γραμμή 3",
        "name": "Ελαιώνας",
        "latitude": 37.9878938,
        "longitude": 23.6941769,
        "municipality": "ΑΙΓΑΛΕΩ",
        "road": "Ιερά Οδός"
    },
    {
        "line": "Γραμμή 3",
        "name": "Κεραμεικός",
        "latitude": 37.97863,
        "longitude": 23.7114956,
        "municipality": "ΑΘΗΝΑΙΩΝ",
        "road": "Πλατεία Περσεφόνης"
    },
    {
        "line": "Γραμμή 3",
        "name": "Μοναστηράκι",
        "latitude": 37.9760854,
        "longitude": 23.7256256,
        "municipality": "ΑΘΗΝΑΙΩΝ",
        "road": "Πλατεία Μοναστηρακίου"
    },
    {
        "line": "Γραμμή 3",
        "name": "Σύνταγμα",
        "latitude": 37.9755845,
        "longitude": 23.7353853,
        "municipality": "ΑΘΗΝΑΙΩΝ",
        "road": "Πλατεία Συντάγματος"
    },
    {
        "line": "Γραμμή 3",
        "name": "Ευαγγελισμός",
        "latitude": 37.9763803,
        "longitude": 23.747296,
        "municipality": "ΑΘΗΝΑΙΩΝ",
        "road": "Βασιλίσσης Σοφίας"
    },
    {
        "line": "Γραμμή 3",
        "name": "Μέγαρο Μουσικής",
        "latitude": 37.979287,
        "longitude": 23.7529123,
        "municipality": "ΑΘΗΝΑΙΩΝ",
        "road": "Βασιλίσσης Σοφίας"
    },
    {
        "line": "Γραμμή 3",
        "name": "Αμπελόκηποι",
        "latitude": 37.987131,
        "longitude": 23.7570697,
        "municipality": "ΑΘΗΝΑΙΩΝ",
        "road": "Αλεξάνδρας"
    },
    {
        "line": "Γραμμή 3",
        "name": "Πανόρμου",
        "latitude": 37.9931604,
        "longitude": 23.7634193,
        "municipality": "ΑΘΗΝΑΙΩΝ",
        "road": "Πανόρμου"
    },
    {
        "line": "Γραμμή 3",
        "name": "Κατεχάκη",
        "latitude": 37.9931672,
        "longitude": 23.7761519,
        "municipality": "ΑΘΗΝΑΙΩΝ",
        "road": "Μεσογείων"
    },
    {
        "line": "Γραμμή 3",
        "name": "Εθνική Άμυνα",
        "latitude": 38.000054,
        "longitude": 23.785751,
        "municipality": "ΠΑΠΑΓΟΥ - ΧΟΛΑΡΓΟΥ",
        "road": "Μεσογείων"
    },
    {
        "line": "Γραμμή 3",
        "name": "Χολαργός",
        "latitude": 38.004519,
        "longitude": 23.794723,
        "municipality": "ΠΑΠΑΓΟΥ - ΧΟΛΑΡΓΟΥ",
        "road": "Μεσογείων"
    },
    {
        "line": "Γραμμή 3",
        "name": "Νομισματοκοπείο",
        "latitude": 38.009274,
        "longitude": 23.8056669,
        "municipality": "ΧΑΛΑΝΔΡΙΟΥ",
        "road": "Μεσογείων"
    },
    {
        "line": "Γραμμή 3",
        "name": "Αγία Παρασκευή",
        "latitude": 38.017192,
        "longitude": 23.8123202,
        "municipality": "ΧΑΛΑΝΔΡΙΟΥ",
        "road": "Πολυδούρη"
    },
    {
        "line": "Γραμμή 3",
        "name": "Χαλάνδρι",
        "latitude": 38.0215139,
        "longitude": 23.8212257,
        "municipality": "ΧΑΛΑΝΔΡΙΟΥ",
        "road": "Δουκίσσης Πλακεντίας"
    },
    {
        "line": "Γραμμή 3",
        "name": "Δουκίσσης Πλακεντίας",
        "latitude": 38.0238877,
        "longitude": 23.8335916,
        "municipality": "ΧΑΛΑΝΔΡΙΟΥ",
        "road": "Τενέδου"
    },
    {
        "line": "Γραμμή 3",
        "name": "Παλλήνη",
        "latitude": 38.0058363,
        "longitude": 23.8695865,
        "municipality": "ΠΑΛΛΗΝΗΣ",
        "road": "Μαραθώνος"
    },
    {
        "line": "Γραμμή 3",
        "name": "Παιανία - Κάντζα",
        "latitude": 37.9836451,
        "longitude": 23.8698907,
        "municipality": "ΠΑΙΑΝΙΑΣ",
        "road": "Αττική Οδός"
    },
    {
        "line": "Γραμμή 3",
        "name": "Κορωπί",
        "latitude": 37.91301,
        "longitude": 23.89581,
        "municipality": "ΚΡΩΠΙΑΣ",
        "road": "Σπύρου Δάβαρη"
    },
    {
        "line": "Γραμμή 3",
        "name": "Αεροδρόμιο",
        "latitude": 37.93692,
        "longitude": 23.9448,
        "municipality": "ΣΠΑΤΩΝ - ΑΡΤΕΜΙΔΟΣ",
        "road": "Κορωπί - Αεροδρόμιο"
    }
]